[
  {
    "name": "Agra",
    "country": "India",
    "country_code": "IN",
    "lat": 27.1752554,
    "lng": 78.0098161,
    "source": "beeneverywhere",
    "source_id": "N567267943",
    "image": "https://upload.wikimedia.org/wikipedia/commons/6/68/Taj_Mahal%2C_Agra%2C_India.jpg",
    "image_credit": "Wikipedia"
  },
  {
    "name": "Amritsar",
    "country": "India",
    "country_code": "IN",
    "lat": 31.6343083,
    "lng": 74.8736788,
    "source": "beeneverywhere",
    "source_id": "N245772397",
    "image": "https://upload.wikimedia.org/wikipedia/commons/e/ea/Golden_Temple_Amritsar_Gurudwara_%28cropped%29.jpg?utm_source=en.wikipedia.org&utm_campaign=api&utm_content=thumbnail_unscaled",
    "image_credit": "Wikipedia"
  },
  {
    "name": "Bengaluru",
    "country": "India",
    "country_code": "IN",
    "lat": 12.9767936,
    "lng": 77.590082,
    "source": "beeneverywhere",
    "source_id": "R7902476",
    "image": "https://upload.wikimedia.org/wikipedia/commons/thumb/c/cd/View_from_Visvesvaraya_Industrial_and_Technological_Museum_%282025%29_02.jpg/3840px-View_from_Visvesvaraya_Industrial_and_Technological_Museum_%282025%29_02.jpg",
    "image_credit": "Wikipedia"
  },
  {
    "name": "Calangute",
    "country": "India",
    "country_code": "IN",
    "lat": 15.5460146,
    "lng": 73.763253,
    "source": "beeneverywhere",
    "source_id": "N1688110013",
    "image": "https://upload.wikimedia.org/wikipedia/commons/thumb/8/81/Sunset_at_Calangute.jpg/3840px-Sunset_at_Calangute.jpg?utm_source=en.wikipedia.org&utm_campaign=api&utm_content=thumbnail",
    "image_credit": "Wikipedia"
  },
  {
    "name": "Chandigarh",
    "country": "India",
    "country_code": "IN",
    "lat": 30.7334421,
    "lng": 76.7797143,
    "source": "beeneverywhere",
    "source_id": "R1942809",
    "image": "https://upload.wikimedia.org/wikipedia/commons/7/76/Open_Hand_monument%2C_Chandigarh.jpg",
    "image_credit": "Wikipedia"
  },
  {
    "name": "Dehradun",
    "country": "India",
    "country_code": "IN",
    "lat": 30.3255646,
    "lng": 78.0436813,
    "source": "beeneverywhere",
    "source_id": "N299531301",
    "image": "https://upload.wikimedia.org/wikipedia/commons/e/e2/Dehradun_view_from_maggi_point.jpg",
    "image_credit": "Wikipedia"
  },
  {
    "name": "Dharamshala",
    "country": "India",
    "country_code": "IN",
    "lat": 32.2143039,
    "lng": 76.3196717,
    "source": "beeneverywhere",
    "source_id": "N245773086",
    "image": "https://upload.wikimedia.org/wikipedia/commons/thumb/a/a6/Dharamshala_03_%28Cropped%29.jpg/3840px-Dharamshala_03_%28Cropped%29.jpg",
    "image_credit": "Wikipedia"
  },
  {
    "name": "Faridabad",
    "country": "India",
    "country_code": "IN",
    "lat": 28.4031478,
    "lng": 77.3105561,
    "source": "beeneverywhere",
    "source_id": "N3582568815",
    "image": "https://upload.wikimedia.org/wikipedia/commons/1/12/Vatika_Business_Towers_Faridabad.png?utm_source=en.wikipedia.org&utm_campaign=api&utm_content=thumbnail_unscaled",
    "image_credit": "Wikipedia"
  },
  {
    "name": "Fatehpur Sikri",
    "country": "India",
    "country_code": "IN",
    "lat": 27.0911655,
    "lng": 77.6623984,
    "source": "beeneverywhere",
    "source_id": "N568383174",
    "image": "https://upload.wikimedia.org/wikipedia/commons/b/b5/Fatehput_Sikiri_Buland_Darwaza_gate_2010.jpg",
    "image_credit": "Wikipedia"
  },
  {
    "name": "Ghaziabad",
    "country": "India",
    "country_code": "IN",
    "lat": 28.6711527,
    "lng": 77.4120356,
    "source": "beeneverywhere",
    "source_id": "R9999582",
    "image": "https://upload.wikimedia.org/wikipedia/commons/e/e1/Indirapuram.jpg",
    "image_credit": "Wikipedia"
  },
  {
    "name": "Greater Noida",
    "country": "India",
    "country_code": "IN",
    "lat": 28.4670734,
    "lng": 77.5137649,
    "source": "beeneverywhere",
    "source_id": "N712869911",
    "image": "https://upload.wikimedia.org/wikipedia/commons/2/23/Greaternoida_expressway_Q2.jpg?utm_source=en.wikipedia.org&utm_campaign=api&utm_content=thumbnail_unscaled",
    "image_credit": "Wikipedia"
  },
  {
    "name": "Gurugram",
    "country": "India",
    "country_code": "IN",
    "lat": 28.4646148,
    "lng": 77.0299194,
    "source": "beeneverywhere",
    "source_id": "R3577685",
    "image": "https://upload.wikimedia.org/wikipedia/commons/thumb/d/d6/Cyber_City_View.jpg/3840px-Cyber_City_View.jpg",
    "image_credit": "Wikipedia"
  },
  {
    "name": "Gwalior",
    "country": "India",
    "country_code": "IN",
    "lat": 26.2037247,
    "lng": 78.1573628,
    "source": "beeneverywhere",
    "source_id": "N568412253",
    "image": "https://upload.wikimedia.org/wikipedia/commons/thumb/1/15/Gwalior_Fort_front.jpg/3840px-Gwalior_Fort_front.jpg",
    "image_credit": "Wikipedia"
  },
  {
    "name": "Jaisalmer",
    "country": "India",
    "country_code": "IN",
    "lat": 26.9116615,
    "lng": 70.9124888,
    "source": "beeneverywhere",
    "source_id": "N364108742",
    "image": "https://upload.wikimedia.org/wikipedia/commons/4/46/Jaisalmer_Fort.jpg",
    "image_credit": "Wikipedia"
  },
  {
    "name": "Kanpur",
    "country": "India",
    "country_code": "IN",
    "lat": 26.4609135,
    "lng": 80.3217588,
    "source": "beeneverywhere",
    "source_id": "R10019384",
    "image": "https://upload.wikimedia.org/wikipedia/commons/a/af/J.K._Temple_%28cropped%29.jpg",
    "image_credit": "Wikipedia"
  },
  {
    "name": "Kullu",
    "country": "India",
    "country_code": "IN",
    "lat": 31.9578974,
    "lng": 77.1089232,
    "source": "beeneverywhere",
    "source_id": "N287468687",
    "image": "https://upload.wikimedia.org/wikipedia/commons/thumb/3/34/Beas_Valley_-_Palchan_-_Kullu_2014-05-10_2275.JPG/3840px-Beas_Valley_-_Palchan_-_Kullu_2014-05-10_2275.JPG",
    "image_credit": "Wikipedia"
  },
  {
    "name": "Lonavala",
    "country": "India",
    "country_code": "IN",
    "lat": 18.7548563,
    "lng": 73.4016729,
    "source": "beeneverywhere",
    "source_id": "N517151014",
    "image": "https://upload.wikimedia.org/wikipedia/commons/5/5d/Mumbai_Pune_Expressway2.jpg",
    "image_credit": "Wikipedia"
  },
  {
    "name": "Lucknow",
    "country": "India",
    "country_code": "IN",
    "lat": 26.8381,
    "lng": 80.9346001,
    "source": "beeneverywhere",
    "source_id": "N245753718",
    "image": "https://upload.wikimedia.org/wikipedia/commons/5/51/Harzratganj_Market%2C_Lucknow.jpg",
    "image_credit": "Wikipedia"
  },
  {
    "name": "Mumbai",
    "country": "India",
    "country_code": "IN",
    "lat": 19.054999,
    "lng": 72.8692035,
    "source": "beeneverywhere",
    "source_id": "R7964375",
    "image": "https://upload.wikimedia.org/wikipedia/commons/2/2b/Mumbai_Bandra-Worli_Sea_Link.jpg",
    "image_credit": "Wikipedia"
  },
  {
    "name": "Mussoorie",
    "country": "India",
    "country_code": "IN",
    "lat": 30.4569012,
    "lng": 78.0782906,
    "source": "beeneverywhere",
    "source_id": "N245770206",
    "image": "https://upload.wikimedia.org/wikipedia/commons/e/e0/Mussoorie_Snow_Over_Dehradun_%2814831297545%29.jpg",
    "image_credit": "Wikipedia"
  },
  {
    "name": "Mysuru",
    "country": "India",
    "country_code": "IN",
    "lat": 12.3051828,
    "lng": 76.6553609,
    "source": "beeneverywhere",
    "source_id": "N2068274800",
    "image": "https://upload.wikimedia.org/wikipedia/commons/5/56/Mysuru_Montage.jpg",
    "image_credit": "Wikipedia"
  },
  {
    "name": "New Delhi",
    "country": "India",
    "country_code": "IN",
    "lat": 28.6138954,
    "lng": 77.2090057,
    "source": "beeneverywhere",
    "source_id": "R2763541",
    "image": "https://upload.wikimedia.org/wikipedia/commons/thumb/f/fe/Forecourt%2C_Rashtrapati_Bhavan_-_1.jpg/3840px-Forecourt%2C_Rashtrapati_Bhavan_-_1.jpg",
    "image_credit": "Wikipedia"
  },
  {
    "name": "Pahalgam",
    "country": "India",
    "country_code": "IN",
    "lat": 34.0322048,
    "lng": 75.3226479,
    "source": "beeneverywhere",
    "source_id": "N165089167",
    "image": "https://upload.wikimedia.org/wikipedia/commons/thumb/a/a3/LiddarRiverJhelum.jpeg/3840px-LiddarRiverJhelum.jpeg",
    "image_credit": "Wikipedia"
  },
  {
    "name": "Prayagraj",
    "country": "India",
    "country_code": "IN",
    "lat": 25.4381302,
    "lng": 81.8338005,
    "source": "beeneverywhere",
    "source_id": "N245733956",
    "image": "https://upload.wikimedia.org/wikipedia/commons/f/f2/Allahabad_Montage_II_Dec_2014.jpg",
    "image_credit": "Wikipedia"
  },
  {
    "name": "Pune",
    "country": "India",
    "country_code": "IN",
    "lat": 18.521428,
    "lng": 73.8544541,
    "source": "beeneverywhere",
    "source_id": "R10351626",
    "image": "https://upload.wikimedia.org/wikipedia/commons/thumb/c/c5/Pune_West_skyline_-_March_2017.jpg/3840px-Pune_West_skyline_-_March_2017.jpg",
    "image_credit": "Wikipedia"
  },
  {
    "name": "Rishikesh",
    "country": "India",
    "country_code": "IN",
    "lat": 30.1086537,
    "lng": 78.2916193,
    "source": "beeneverywhere",
    "source_id": "R9984824",
    "image": "https://upload.wikimedia.org/wikipedia/commons/thumb/7/74/Trayambakeshwar_Temple_VK.jpg/3840px-Trayambakeshwar_Temple_VK.jpg",
    "image_credit": "Wikipedia"
  },
  {
    "name": "Shimla",
    "country": "India",
    "country_code": "IN",
    "lat": 31.1041526,
    "lng": 77.1709729,
    "source": "beeneverywhere",
    "source_id": "N316417040",
    "image": "https://upload.wikimedia.org/wikipedia/commons/thumb/b/ba/Landscape_of_Shimla_%2C_Himachal_Pradesh.jpg/3840px-Landscape_of_Shimla_%2C_Himachal_Pradesh.jpg?utm_source=en.wikipedia.org&utm_campaign=api&utm_content=thumbnail",
    "image_credit": "Wikipedia"
  },
  {
    "name": "Sonamarg",
    "country": "India",
    "country_code": "IN",
    "lat": 34.302387,
    "lng": 75.2965551,
    "source": "beeneverywhere",
    "source_id": "N342119097",
    "image": "https://upload.wikimedia.org/wikipedia/commons/a/a2/Sonmarg_rishav7336.jpg",
    "image_credit": "Wikipedia"
  },
  {
    "name": "Srinagar",
    "country": "India",
    "country_code": "IN",
    "lat": 34.0747444,
    "lng": 74.8204443,
    "source": "beeneverywhere",
    "source_id": "N273658993",
    "image": "https://upload.wikimedia.org/wikipedia/commons/a/ad/Red_and_Yellow_Tulips.JPG",
    "image_credit": "Wikipedia"
  },
  {
    "name": "Udhagamandalam",
    "country": "India",
    "country_code": "IN",
    "lat": 11.4126769,
    "lng": 76.7030504,
    "source": "beeneverywhere",
    "source_id": "N245592179",
    "image": "https://upload.wikimedia.org/wikipedia/commons/d/db/Ooty_lake.jpg?utm_source=en.wikipedia.org&utm_campaign=api&utm_content=thumbnail_unscaled",
    "image_credit": "Wikipedia"
  },
  {
    "name": "Varanasi",
    "country": "India",
    "country_code": "IN",
    "lat": 25.3356491,
    "lng": 83.0076292,
    "source": "beeneverywhere",
    "source_id": "N287687798",
    "image": "https://upload.wikimedia.org/wikipedia/commons/0/0e/Varanasi%2C_India%2C_Ghats%2C_Cremation_ceremony_in_progress.jpg",
    "image_credit": "Wikipedia"
  },
  {
    "name": "Kuala Lumpur",
    "country": "Malaysia",
    "country_code": "MY",
    "lat": 3.1516964,
    "lng": 101.6942371,
    "source": "beeneverywhere",
    "source_id": "R2939672",
    "image": "https://upload.wikimedia.org/wikipedia/commons/thumb/1/1a/Bukit_Bintang_junction_in_2024_2.jpg/3840px-Bukit_Bintang_junction_in_2024_2.jpg",
    "image_credit": "Wikipedia"
  },
  {
    "name": "Bangkok",
    "country": "Thailand",
    "country_code": "TH",
    "lat": 13.7524938,
    "lng": 100.4935089,
    "source": "beeneverywhere",
    "source_id": "R92277",
    "image": "https://upload.wikimedia.org/wikipedia/commons/thumb/f/f6/Bangkok%2C_Thailand%2C_High_angle_aerial_view.jpg/3840px-Bangkok%2C_Thailand%2C_High_angle_aerial_view.jpg",
    "image_credit": "Wikipedia"
  },
  {
    "name": "Ko Phi Phi Don",
    "country": "Thailand",
    "country_code": "TH",
    "lat": 7.7522403,
    "lng": 98.776643367,
    "source": "beeneverywhere",
    "source_id": "R6099581",
    "image": "https://upload.wikimedia.org/wikipedia/commons/thumb/9/9b/Isla_Ko_Phi_Phi_Don%2C_Tailandia%2C_2013-08-19%2C_DD_02.JPG/3840px-Isla_Ko_Phi_Phi_Don%2C_Tailandia%2C_2013-08-19%2C_DD_02.JPG",
    "image_credit": "Wikipedia"
  },
  {
    "name": "Ko Phi Phi Leh",
    "country": "Thailand",
    "country_code": "TH",
    "lat": 7.68535115,
    "lng": 98.765764138,
    "source": "beeneverywhere",
    "source_id": "R6099533",
    "image": "https://upload.wikimedia.org/wikipedia/commons/thumb/3/34/Maya_Bay%2C_Thailand_by_Mike_Clegg_Photography.jpg/3840px-Maya_Bay%2C_Thailand_by_Mike_Clegg_Photography.jpg",
    "image_credit": "Wikipedia"
  },
  {
    "name": "Phuket",
    "country": "Thailand",
    "country_code": "TH",
    "lat": 7.8847901,
    "lng": 98.3891503,
    "source": "beeneverywhere",
    "source_id": "R18271854",
    "image": "https://upload.wikimedia.org/wikipedia/commons/thumb/6/60/Phuket_Aerial.jpg/3840px-Phuket_Aerial.jpg",
    "image_credit": "Wikipedia"
  },
  {
    "name": "Hanoi",
    "country": "Vietnam",
    "country_code": "VN",
    "lat": 21.0294498,
    "lng": 105.8544441,
    "source": "beeneverywhere",
    "source_id": "R1903516",
    "image": "https://upload.wikimedia.org/wikipedia/commons/8/8e/Hanoi_skyline_with_Ba_Vi_Mountain.jpg",
    "image_credit": "Wikipedia"
  },
  {
    "name": "Hồ Chí Minh City",
    "country": "Vietnam",
    "country_code": "VN",
    "lat": 10.7758439,
    "lng": 106.7017555,
    "source": "beeneverywhere",
    "source_id": "R1973756",
    "image": "https://upload.wikimedia.org/wikipedia/commons/thumb/f/f4/Ho_Chi_Minh_City_panorama_2019_%28cropped2%29.jpg/3840px-Ho_Chi_Minh_City_panorama_2019_%28cropped2%29.jpg?utm_source=en.wikipedia.org&utm_campaign=api&utm_content=thumbnail",
    "image_credit": "Wikipedia"
  },
  {
    "name": "Hội An",
    "country": "Vietnam",
    "country_code": "VN",
    "lat": 15.8795863,
    "lng": 108.3319406,
    "source": "beeneverywhere",
    "source_id": "N110506070"
  },
  {
    "name": "Đà Nẵng",
    "country": "Vietnam",
    "country_code": "VN",
    "lat": 16.068,
    "lng": 108.212,
    "source": "beeneverywhere",
    "source_id": "R1891418",
    "image": "https://upload.wikimedia.org/wikipedia/commons/2/2a/Dragon_Bridge%2C_Da_Nang_during_day_-_20230819_%28cropped%29.jpg?utm_source=en.wikipedia.org&utm_campaign=api&utm_content=thumbnail_unscaled",
    "image_credit": "Wikipedia"
  }
]