[
  {
    "name": "Bengaluru",
    "country": "India",
    "country_code": "IN",
    "lat": 12.9767936,
    "lng": 77.590082,
    "source": "beeneverywhere",
    "source_id": "R7902476",
    "image": "https://upload.wikimedia.org/wikipedia/commons/thumb/c/cd/View_from_Visvesvaraya_Industrial_and_Technological_Museum_%282025%29_02.jpg/3840px-View_from_Visvesvaraya_Industrial_and_Technological_Museum_%282025%29_02.jpg",
    "image_credit": "Wikipedia"
  },
  {
    "name": "Chandigarh",
    "country": "India",
    "country_code": "IN",
    "lat": 30.7334421,
    "lng": 76.7797143,
    "source": "beeneverywhere",
    "source_id": "R1942809",
    "image": "https://upload.wikimedia.org/wikipedia/commons/7/76/Open_Hand_monument%2C_Chandigarh.jpg",
    "image_credit": "Wikipedia"
  },
  {
    "name": "Lucknow",
    "country": "India",
    "country_code": "IN",
    "lat": 26.8381,
    "lng": 80.9346001,
    "source": "beeneverywhere",
    "source_id": "N245753718",
    "image": "https://upload.wikimedia.org/wikipedia/commons/5/51/Harzratganj_Market%2C_Lucknow.jpg",
    "image_credit": "Wikipedia"
  },
  {
    "name": "Mumbai",
    "country": "India",
    "country_code": "IN",
    "lat": 19.054999,
    "lng": 72.8692035,
    "source": "beeneverywhere",
    "source_id": "N16173235",
    "image": "https://upload.wikimedia.org/wikipedia/commons/2/2b/Mumbai_Bandra-Worli_Sea_Link.jpg",
    "image_credit": "Wikipedia"
  },
  {
    "name": "New Delhi",
    "country": "India",
    "country_code": "IN",
    "lat": 28.6138954,
    "lng": 77.2090057,
    "source": "beeneverywhere",
    "source_id": "R2763541",
    "image": "https://upload.wikimedia.org/wikipedia/commons/thumb/f/fe/Forecourt%2C_Rashtrapati_Bhavan_-_1.jpg/3840px-Forecourt%2C_Rashtrapati_Bhavan_-_1.jpg",
    "image_credit": "Wikipedia"
  },
  {
    "name": "Pahalgam",
    "country": "India",
    "country_code": "IN",
    "lat": 34.0322048,
    "lng": 75.3226479,
    "source": "beeneverywhere",
    "source_id": "N165089167",
    "image": "https://upload.wikimedia.org/wikipedia/commons/thumb/a/a3/LiddarRiverJhelum.jpeg/3840px-LiddarRiverJhelum.jpeg",
    "image_credit": "Wikipedia"
  },
  {
    "name": "Pune",
    "country": "India",
    "country_code": "IN",
    "lat": 18.521428,
    "lng": 73.8544541,
    "source": "beeneverywhere",
    "source_id": "R10351626",
    "image": "https://upload.wikimedia.org/wikipedia/commons/thumb/c/c5/Pune_West_skyline_-_March_2017.jpg/3840px-Pune_West_skyline_-_March_2017.jpg",
    "image_credit": "Wikipedia"
  },
  {
    "name": "Rishikesh",
    "country": "India",
    "country_code": "IN",
    "lat": 30.1086537,
    "lng": 78.2916193,
    "source": "beeneverywhere",
    "source_id": "R9984824",
    "image": "https://upload.wikimedia.org/wikipedia/commons/thumb/7/74/Trayambakeshwar_Temple_VK.jpg/3840px-Trayambakeshwar_Temple_VK.jpg",
    "image_credit": "Wikipedia"
  },
  {
    "name": "Sonamarg",
    "country": "India",
    "country_code": "IN",
    "lat": 34.302387,
    "lng": 75.2965551,
    "source": "beeneverywhere",
    "source_id": "N342119097",
    "image": "https://upload.wikimedia.org/wikipedia/commons/a/a2/Sonmarg_rishav7336.jpg",
    "image_credit": "Wikipedia"
  },
  {
    "name": "Srinagar",
    "country": "India",
    "country_code": "IN",
    "lat": 34.0747444,
    "lng": 74.8204443,
    "source": "beeneverywhere",
    "source_id": "N273658993",
    "image": "https://upload.wikimedia.org/wikipedia/commons/a/ad/Red_and_Yellow_Tulips.JPG",
    "image_credit": "Wikipedia"
  },
  {
    "name": "Udhagamandalam",
    "country": "India",
    "country_code": "IN",
    "lat": 11.4126769,
    "lng": 76.7030504,
    "source": "beeneverywhere",
    "source_id": "N245592179",
    "image": "https://upload.wikimedia.org/wikipedia/commons/d/db/Ooty_lake.jpg",
    "image_credit": "Wikipedia"
  },
  {
    "name": "Bangkok",
    "country": "Thailand",
    "country_code": "TH",
    "lat": 13.7524938,
    "lng": 100.4935089,
    "source": "beeneverywhere",
    "source_id": "R92277",
    "image": "https://upload.wikimedia.org/wikipedia/commons/0/02/Bangkok_Montage_2024_2.jpg",
    "image_credit": "Wikipedia"
  },
  {
    "name": "Hanoi",
    "country": "Vietnam",
    "country_code": "VN",
    "lat": 21.0294498,
    "lng": 105.8544441,
    "source": "beeneverywhere",
    "source_id": "R1903516",
    "image": "https://upload.wikimedia.org/wikipedia/commons/8/8e/Hanoi_skyline_with_Ba_Vi_Mountain.jpg",
    "image_credit": "Wikipedia"
  },
  {
    "name": "Hồ Chí Minh City",
    "country": "Vietnam",
    "country_code": "VN",
    "lat": 10.7758439,
    "lng": 106.7017555,
    "source": "beeneverywhere",
    "source_id": "R1973756",
    "image": "https://upload.wikimedia.org/wikipedia/commons/thumb/f/f4/Ho_Chi_Minh_City_panorama_2019_%28cropped2%29.jpg/3840px-Ho_Chi_Minh_City_panorama_2019_%28cropped2%29.jpg",
    "image_credit": "Wikipedia"
  },
  {
    "name": "Đà Nẵng",
    "country": "Vietnam",
    "country_code": "VN",
    "lat": 16.068,
    "lng": 108.212,
    "source": "beeneverywhere",
    "source_id": "R1891418",
    "image": "https://upload.wikimedia.org/wikipedia/commons/2/2a/Dragon_Bridge%2C_Da_Nang_during_day_-_20230819_%28cropped%29.jpg",
    "image_credit": "Wikipedia"
  }
]